{"stores": [{"points": 10, "name": "Safeway (Marina)", "address": "15 marina blvd sf ca", "lat": 37.8044556, "long": -122.4328266}, {"points": 10, "name": "Real Food Co.", "address": "2140 polk st sf ca", "lat": 37.7965779, "long": -122.4216322}, {"points": 10, "name": "Whole Foods (Market)", "address": "2001 market st sf ca", "lat": 37.7683534, "long": -122.4271397}, {"points": 10, "name": "Foods Co.", "address": "1800 folsom st sf ca", "lat": 37.7676296, "long": -122.4161612}, {"points": 10, "name": "Trader Joe's (SOMA)", "address": "555 9th st sf ca", "lat": 37.7708301, "long": -122.4074527}, {"points": 20, "name": "Richmond New Way Mah", "address": "707 clement st sf ca", "lat": 37.7826632, "long": -122.4668331}, {"points": 20, "name": "Lucky (NOPA)", "address": "1750 Fulton St SF CA", "lat": 37.7762543, "long": -122.4456399}, {"points": 20, "name": "Whole Foods (24th)", "address": "3950 24th st sf ca", "lat": 37.7520043, "long": -122.4309341}, {"points": 20, "name": "Mollie Stone's (Portola)", "address": "635 portola dr sf ca", "lat": 37.74472919999999, "long": -122.4523811}, {"points": 20, "name": "Safeway (Monterey Blvd)", "address": "625 moneterey blvd sf ca", "lat": 37.7312462, "long": -122.4500589}, {"points": 30, "name": "Grocery Outlet (Geary)", "address": "6333 geary blvd sf ca", "lat": 37.7796711, "long": -122.4875987}, {"points": 30, "name": "Safeway (Noriega)", "address": "2350 noriega st sf ca", "lat": 37.7541947, "long": -122.4888054}, {"points": 30, "name": "Lucky (Lakeshore)", "address": "1515 sloat blvd sf ca", "lat": 37.7332118, "long": -122.4894004}, {"points": 30, "name": "Pacific Supermarket", "address": "2900 alemany blvd sf ca", "lat": 37.7119732, "long": -122.4529797}, {"points": 30, "name": "Trader Joe's (Stonestown)", "address": "265 winston dr sf ca", "lat": 37.7266474, "long": -122.4763117}, {"points": 40, "name": "Grocery Outlet (SSF)", "address": "125 hickey blvd south san francisco ca", "lat": 37.6655232, "long": -122.4521988}, {"points": 40, "name": "Mollie Stone's (Sausalito)", "address": "100 harbor dr sausalito ca", "lat": 37.8666379, "long": -122.4995568}, {"name": "End", "address": "900 Pennsylvania Avenue San Francisco, CA 94107", "points": 0, "lat": 37.7544355, "long": -122.3935173}]}
